     2.11           OBSERVATION DATA    G (GPS)             RINEX VERSION / TYPE
teqc  2017Sep15                         20210202 00:31:15UTCPGM / RUN BY / DATE
Linux 2.4.21-27.ELsmp|Opteron|gcc -static|Linux 64|=+       COMMENT
BIT 2 OF LLI FLAGS DATA COLLECTED UNDER A/S CONDITION       COMMENT
KGNI                                                        MARKER NAME
21704S005                                                   MARKER NUMBER
ICHIKAWA R.         NICT                                    OBSERVER / AGENCY
4731136224          TRIMBLE NETRS       1.3-2               REC # / TYPE / VERS
CR520000107         ASH701945C_M    SCIS                    ANT # / TYPE
 -3941949.1592  3368156.3546  3702214.8303                  APPROX POSITION XYZ
        0.0000        0.0000        0.0000                  ANTENNA: DELTA H/E/N
     1     1                                                WAVELENGTH FACT L1/2
     6    L1    L2    C1    P2    S1    S2                  # / TYPES OF OBSERV
    30.0000                                                 INTERVAL
    18                                                      LEAP SECONDS
 SNR is mapped to RINEX snr flag value [0-9]                COMMENT
  L1 & L2: min(max(int(snr_dBHz/6), 0), 9)                  COMMENT
  2021     2     1     0     0    0.0000000     GPS         TIME OF FIRST OBS
                                                            END OF HEADER
 21  2  1  0  0  0.0000000  0  8G23G18G15G24G12G13G10G20
 -21199441.00047 -15764792.58646  20382809.5864   20382805.6024         46.2504
        41.0004
  -5672283.80546  -3754670.39843  23145254.9304   23145251.0234         40.0004
        23.7504
 -16939033.86747 -13137737.28946  20974601.6094   20974597.6214         46.2504
        38.2504
 -21724998.51247 -16747261.36748  20003340.6334   20003338.5434         47.0004
        53.7504
  -7901976.13746  -5725390.94945  22047477.5314   22047473.2194         41.5004
        31.5004
  -2759570.55546   -743892.82442  23869098.8364   23869095.1484         36.2504
        15.5004
 -12399858.29347  -8939475.74647  22356609.3444   22356607.7814         43.0004
        43.5004
 -21436500.97747 -15340027.49246  20220608.9614   20220604.6414         45.2504
        40.2504
 21  2  1  0  0 30.0000000  0  8G23G18G15G24G12G13G10G20
 -21227439.73047 -15786609.78546  20377481.5234   20377477.6604         45.2504
        40.0004
  -5591228.88746  -3691510.74644  23160678.7424   23160674.8594         40.2504
        25.0004
 -16893497.93747 -13102254.77346  20983266.9304   20983262.9414         47.0004
        38.5004
 -21693130.23847 -16722428.94548  20009404.8284   20009403.0944         47.7504
        53.7504
  -7993054.91447  -5796361.41845  22030145.3284   22030141.6484         42.0004
        32.5004
  -2684139.73845   -685115.61342  23883452.9774   23883449.4924         35.7504
        17.2504
 -12485873.47347  -9006500.55947  22340241.5554   22340240.1914         43.0004
        44.2504
 -21454761.90247 -15354256.81646  20217133.9924   20217129.7624         46.0004
        40.0004
 21  2  1  0  1  0.0000000  0  8G23G18G15G24G12G13G10G20
 -21254899.02747 -15808006.66046  20372256.0164   20372252.3594         46.0004
        40.5004
  -5509976.86746  -3628197.49644  23176140.1724   23176136.3914         39.0004
        24.7504
 -16847708.98047 -13066575.07846  20991980.1484   20991976.2774         46.5004
        38.5004
 -21660860.79747 -16697283.92648  20015545.4694   20015543.6994         47.5004
        53.7504
  -8083812.19147  -5867081.36745  22012875.4224   22012870.9224         43.7504
        32.5004
  -2608644.57446   -626288.19942  23897819.3984   23897815.2154         37.5004
        16.2504
 -12571593.34047  -9073295.26247  22323929.4534   22323927.2424         42.7504
        44.0004
 -21472438.18447 -15368030.54746  20213770.2664   20213766.2344         47.2504
        40.0004
 21  2  1  0  1 30.0000000  0  8G23G18G15G24G12G13G10G20
 -21281817.36347 -15828982.00046  20367134.1804   20367129.7894         46.7504
        40.2504
  -5428530.90246  -3564733.14844  23191638.7114   23191636.2274         39.7504
        26.2504
 -16801666.69947 -13030698.00446  21000741.5554   21000737.3444         46.0004
        38.0004
 -21628192.29747 -16671827.96948  20021762.2974   20021760.6254         47.5004
        53.5004
  -8174245.00447  -5937548.48845  21995666.9144   21995662.0164         43.7504
        33.0004
  -2533084.96145   -567410.63743  23912197.4064   23912195.1094         34.7504
        18.2504
 -12657015.19947  -9139857.74647  22307674.4064   22307672.7274         43.2504
        44.2504
 -21489528.66047 -15381347.82046  20210518.2114   20210513.6994         45.0004
        40.0004
 21  2  1  0  2  0.0000000  0  8G23G18G15G24G12G13G10G20
 -21308193.22747 -15849534.64146  20362114.5944   20362110.8324         46.5004
        41.0004
  -5346894.14846  -3501120.12543  23207173.9924   23207170.5234         40.0004
        23.7504
 -16755371.28947 -12994623.68046  21009551.6644   21009547.2704         47.0004
        38.5004
 -21595126.05147 -16646062.05948  20028054.3134   20028052.4694         47.7504
        53.7504
  -8264349.99247  -6007760.14845  21978520.3984   21978515.7464         43.2504
        32.0004
  -2457460.84445   -508482.86742  23926588.9144   23926585.6884         34.5004
        17.7504
 -12742136.31647  -9206185.87947  22291476.2274   22291474.5164         43.0004
        44.0004
 -21506032.51647 -15394207.98046  20207377.6094   20207373.3714         45.0004
        40.2504
 21  2  1  0  2 30.0000000  0  8G23G18G15G24G12G13G10G20
 -21334025.15247 -15869663.41846  20357199.1414   20357195.0124         46.5004
        40.5004
  -5265069.84046  -3437360.95743  23222744.2344   23222740.8324         39.2504
        22.7504
 -16708822.96547 -12958352.27046  21018409.2584   21018404.9304         46.5004
        38.7504
 -21561664.54747 -16619988.16048  20034421.7034   20034420.3284         47.5004
        53.5004
  -8354123.70347  -6077713.68745  21961437.2584   21961432.7384         44.0004
        33.2504
  -2381772.34045   -449504.85943  23940992.0164   23940988.0514         34.5004
        18.2504
 -12826954.02747  -9272277.60547  22275336.0084   22275334.2504         43.0004
        44.0004
 -21521948.81247 -15406610.30546  20204349.0084   20204344.1254         46.2504
        40.2504
 21  2  1  0  3  0.0000000  0  8G23G18G15G24G12G13G10G20
 -21359311.61747 -15889367.18046  20352386.7814   20352383.8164         47.0004
        40.7504
  -5183061.04346  -3373458.05543  23238350.6484   23238346.3054         38.2504
        22.5004
 -16662021.54347 -12921883.64546  21027315.6564   21027311.3094         45.5004
        38.2504
 -21527809.21947 -16593607.39148  20040864.3134   20040862.5784         47.7504
        53.5004
  -8443563.24247  -6147406.82445  21944417.3524   21944412.9614         44.0004
        33.2504
  -2306019.23045   -390476.52042  23955407.7424   23955403.5904         35.7504
        17.7504
 -12911465.64147  -9338130.80547  22259253.4064   22259252.2814         42.7504
        44.0004
 -21537276.52347 -15418553.98446  20201432.1954   20201427.9184         46.2504
        40.5004
 21  2  1  0  3 30.0000000  0  8G23G18G15G24G12G13G10G20
 -21384051.25047 -15908644.82446  20347679.3054   20347675.6884         46.5004
        40.5004
  -5100871.10546  -3309413.93743  23253990.7664   23253986.3984         38.7504
        22.5004
 -16614967.07047 -12885217.84846  21036269.8594   21036265.2154         46.5004
        38.2504
 -21493561.71147 -16566921.03148  20047381.6414   20047379.4924         47.5004
        53.5004
  -8532665.10247  -6216836.84845  21927461.4614   21927457.7114         43.5004
        32.5004
  -2230201.80545   -331398.07043  23969834.3594   23969831.6024         34.5004
        18.5004
 -12995668.48447  -9403743.40247  22243230.5004   22243229.4184         43.5004
        44.0004
 -21552015.12147 -15430038.62146  20198627.1174   20198623.1334         45.7504
        39.5004
 21  2  1  0  4  0.0000000  0  8G23G18G15G24G12G13G10G20
 -21408242.64847 -15927495.27746  20343076.1174   20343072.0704         46.2504
        40.7504
  -5018503.08646  -3245231.09843  23269664.3984   23269660.9104         36.7504
        21.2504
 -16567659.67247 -12848354.93446  21045272.0784   21045267.7934         46.0004
        38.2504
 -21458923.65247 -16539930.33248  20053972.8204   20053970.6134         47.2504
        53.5004
  -8621426.38347  -6286001.44945  21910570.1174   21910566.3634         42.2504
        31.7504
  -2154319.85245   -272269.32042  23984275.0084   23984271.6724         34.7504
        16.7504
 -13079559.83647  -9469113.31247  22227266.4454   22227265.0354         42.7504
        43.7504
 -21566162.89547 -15441062.87146  20195935.5004   20195930.6884         46.7504
        40.0004
 21  2  1  0  4 30.0000000  0  8G23G18G15G24G12G13G10G20
 -21431884.33247 -15945917.37946  20338577.3524   20338573.4304         46.7504
        40.5004
  -4935960.16046  -3180911.98443  23285371.9384   23285368.1684         38.7504
        22.0004
 -16520099.36347 -12811294.96946  21054322.5704   21054318.5704         47.0004
        38.2504
 -21423897.91848 -16512637.55548  20060638.5004   20060636.3054         48.2504
        53.5004
  -8709843.57847  -6354897.95345  21893745.7734   21893741.3794         43.5004
        32.5004
  -2078373.68046   -213090.52343  23998728.2734   23998724.6454         37.2504
        18.2504
 -13163137.03147  -9534238.37947  22211362.7734   22211361.4144         44.2504
        44.5004
 -21579719.22747 -15451626.25046  20193355.4774   20193350.8834         47.0004
        40.2504
 21  2  1  0  5  0.0000000  0  8G23G18G15G24G12G13G10G20
 -21454974.97347 -15963910.10546  20334183.1024   20334179.1374         46.0004
        40.5004
  -4853245.63346  -3116459.15244  23301112.7734   23301109.6174         40.5004
        25.5004
 -16472286.26647 -12774038.02046  21063420.7734   21063417.0274         47.0004
        38.2504
 -21388485.12147 -16485043.16048  20067377.1334   20067375.3874         47.2504
        53.7504
  -8797913.62547  -6423523.94545  21876986.6484   21876982.4024         43.7504
        32.5004
  -2002362.87545   -153861.41042  24013191.0234   24013189.3014         34.0004
        17.2504
 -13246397.39147  -9599116.56647  22195518.5004   22195516.9144         44.7504
        44.7504
 -21592683.25847 -15461728.10546  20190888.6024   20190884.4774         47.0004
        39.7504
 21  2  1  0  5 30.0000000  0  8G23G18G15G24G12G13G10G20
 -21477513.19547 -15981472.37946  20329893.9694   20329890.3284         45.5004
        40.7504
  -4770362.61346  -3051875.02344  23316884.7274   23316882.2384         40.0004
        25.0004
 -16424220.57847 -12736584.25846  21072567.3834   21072563.6294         46.5004
        38.0004
 -21352687.83647 -16457149.18048  20074189.1884   20074187.2464         47.7504
        53.7504
  -8885633.15647  -6491876.81645  21860293.4924   21860289.8404         43.5004
        33.7504
  -1926287.64145    -94582.07442  24027667.4614   24027665.6454         34.2504
        17.2504
 -13329338.17647  -9663745.76247  22179735.4694   22179733.3554         44.2504
        44.7504
 -21605054.22347 -15471367.82846  20188534.5394   20188530.0204         47.2504
        39.7504
 21  2  1  0  6  0.0000000  0  8G23G18G15G24G12G13G10G20
 -21499497.68747 -15998603.16446  20325710.8524   20325707.1174         46.7504
        40.2504
  -4687314.23446  -2987162.02743  23332688.0234   23332685.6524         39.0004
        22.5004
 -16375902.02347 -12698933.46546  21081762.3284   21081758.1914         47.0004
        38.2504
 -21316507.66448 -16428956.84848  20081074.0084   20081071.6644         48.2504
        53.5004
  -8972999.18047  -6559954.23045  21843668.6724   21843664.8594         43.5004
        33.2504
  -1850147.96145    -35252.44142  24042157.3444   24042153.9064         34.0004
        15.5004
 -13411956.76647  -9728123.88747  22164014.0554   22164011.7934         45.2504
        44.7504
 -21616831.33247 -15480544.80946  20186293.2424   20186288.9104         46.2504
        39.5004
 21  2  1  0  6 30.0000000  0  8G23G18G15G24G12G13G10G20
 -21520927.04747 -16015301.37146  20321632.7424   20321629.1334         45.7504
        40.7504
  -4604103.68746  -2922322.63743  23348522.0704   23348519.5944         38.0004
        20.2504
 -16327331.14547 -12661086.03946  21091005.0394   21091000.5744         46.2504
        38.0004
 -21279946.75447 -16400467.82048  20088031.1644   20088029.3324         47.5004
        53.5004
  -9060008.09847  -6627753.37945  21827110.8204   21827107.0234         42.5004
        32.2504
  -1773943.75445     24127.39543  24056658.8134   24056655.5744         34.2504
        18.2504
 -13494250.48847  -9792248.84047  22148353.4774   22148352.6884         44.0004
        44.5004
 -21628013.71947 -15489258.37146  20184165.5084   20184161.2854         47.2504
        39.5004
 21  2  1  0  7  0.0000000  0  8G23G18G15G24G12G13G10G20
 -21541800.06647 -16031566.07846  20317660.8444   20317656.8874         45.5004
        40.5004
  -4520734.08645  -2857359.33643  23364386.6484   23364384.3874         35.2504
        20.0004
 -16278507.45347 -12623041.61746  21100295.6724   21100291.4774         46.0004
        37.7504
 -21243006.64147 -16371683.31648  20095060.2894   20095058.7464         47.2504
        53.5004
  -9146657.07047  -6695272.02745  21810623.0474   21810618.8524         43.5004
        33.2504
  -1697675.01645     83557.52042  24071172.2344   24071169.1454         35.7504
        17.2504
 -13576216.54347  -9856118.50847  22132755.8284   22132754.5394         43.2504
        44.2504
 -21638600.69947 -15497507.98846  20182151.0314   20182146.0664         47.0004
        40.7504
 21  2  1  0  7 30.0000000  0  8G23G18G15G24G12G13G10G20
 -21562115.43447 -16047396.24646  20313794.9224   20313791.2894         45.5004
        40.7504
  -4437208.83646  -2792274.73843  23380280.7814   23380278.2114         37.0004
        21.2504
 -16229431.25047 -12584800.43446  21109634.6804   21109630.3754         45.7504
        38.0004
 -21205689.18747 -16342604.78548  20102161.7504   20102160.0394         46.7504
        53.2504
  -9232942.88747  -6762507.71145  21794202.8054   21794198.7304         43.2504
        33.5004
  -1621341.82845    143037.84442  24085696.9534   24085694.9064         35.0004
        17.7504
 -13657852.36347  -9919730.84847  22117221.2734   22117219.8754         45.0004
        44.7504
 -21648591.42247 -15505292.97746  20180249.6094   20180245.1954         47.0004
        40.0004
 21  2  1  0  8  0.0000000  0  8G23G18G15G24G12G13G10G20
 -21581871.85547 -16062790.87946  20310035.6484   20310031.5274         46.2504
        41.0004
  -4353530.88745  -2727071.19543  23396204.3444   23396202.3204         34.2504
        20.5004
 -16180102.83247 -12546362.72746  21119022.0084   21119017.2074         46.5004
        38.0004
 -21167996.44547 -16313233.82448  20109334.3984   20109332.5004         47.2504
        53.2504
  -9318862.29347  -6829457.87545  21777852.8754   21777849.1604         44.0004
        34.2504
  -1544944.03545    202568.52742  24100235.3984   24100232.3094         34.5004
        16.2504
 -13739155.20347  -9983083.69947  22101749.4224   22101748.0204         44.0004
        44.2504
 -21657985.14147 -15512612.77346  20178462.2114   20178457.8324         47.0004
        39.7504
 21  2  1  0  8 30.0000000  0  8G23G18G15G24G12G13G10G20
 -21601068.14147 -16077749.03546  20306382.7424   20306378.7974         45.7504
        40.5004
  -4269703.53545  -2661751.25043  23412156.4614   23412154.3404         35.0004
        19.0004
 -16130522.04747 -12507728.35946  21128456.6414   21128452.4844         46.0004
        37.5004
 -21129930.18447 -16283571.80948  20116578.3754   20116576.2584         47.0004
        53.0004
  -9404412.05547  -6896120.03545  21761573.1644   21761569.4024         43.7504
        33.2504
  -1468481.71545    262149.44942  24114785.1254   24114782.6374         34.5004
        16.2504
 -13820122.40647 -10046175.03947  22086342.3914   22086340.3364         43.7504
        44.5004
 -21666780.97347 -15519466.69146  20176788.3984   20176783.6724         46.5004
        39.7504
 21  2  1  0  9  0.0000000  0  8G23G18G15G24G12G13G10G20
 -21619703.03547 -16092269.75046  20302836.5004   20302833.2074         46.5004
        41.0004
  -4185729.86745  -2596317.27743  23428137.3834   23428133.5124         34.7504
        19.2504
 -16080689.04747 -12468897.46546  21137939.3444   21137935.3014         46.5004
        37.5004
 -21091491.63348 -16253619.70348  20123893.0084   20123891.0944         48.0004
        53.0004
  -9489589.21147  -6962491.82845  21745364.7034   21745360.6644         43.2504
        33.0004
  -1391954.98045    321780.64542  24129347.5084   24129345.5124         34.0004
        17.2504
 -13900751.30547 -10109002.72747  22070998.9774   22070997.8364         43.0004
        45.2504
 -21674978.68747 -15525854.52746  20175228.3054   20175223.6524         46.7504
        39.7504
 21  2  1  0  9 30.0000000  0  8G23G18G15G24G12G13G10G20
 -21637775.34047 -16106352.08246  20299397.2344   20299393.5164         46.0004
        41.5004
  -4101613.10245  -2530771.80142  23444142.5234   23444141.7154         31.5004
        17.7504
 -16030603.91847 -12429870.10946  21147470.2664   21147466.3874         45.7504
        37.5004
 -21052683.34847 -16223379.48448  20131277.7814   20131276.0234         47.0004
        53.2504
  -9574390.47347  -7028570.71545  21729227.0704   21729222.8954         44.2504
        33.0004
  -1315363.68445    381462.03142  24143922.6804   24143921.2194         33.5004
        16.7504
 -13981039.16447 -10171564.70747  22055720.7974   22055719.4384         44.2504
        45.0004
 -21682577.41447 -15531775.63346  20173782.3754   20173778.1564         46.5004
        40.7504
 21  2  1  0 10  0.0000000  0  8G23G18G15G24G12G13G10G20
 -21655283.89147 -16119995.11746  20296065.5704   20296062.3594         45.5004
        40.5004
  -4017356.40646  -2465117.18442  23460177.7274   23460174.7504         37.2504
        17.2504
 -15980266.60547 -12390646.24246  21157049.1094   21157045.2934         46.2504
        37.7504
 -21013507.05947 -16192852.51648  20138732.7584   20138730.5864         46.5004
        53.0004
  -9658812.68047  -7094354.25445  21713162.9924   21713157.8134         43.5004
        32.2504
  -1238707.750 5                  24158509.336                          31.750

 -14060983.38347 -10233858.89847  22040508.2274   22040506.5634         43.5004
        45.2504
 -21689576.32047 -15537229.34046  20172451.0634   20172446.0704         46.7504
        39.7504
 21  2  1  0 10 30.0000000  0  8G23G18G15G24G12G13G10G20
 -21672227.54747 -16133197.98846  20292841.3204   20292837.6844         47.2504
        40.5004
  -3932962.96145  -2399356.05943  23476236.4064   23476234.6024         33.2504
        19.7504
 -15929677.16847 -12351225.92246  21166676.3984   21166671.7584         46.7504
        37.5004
 -20973965.05547 -16162040.57848  20146257.6094   20146255.4304         47.5004
        53.2504
  -9742852.32047  -7159839.71545  21697170.6644   21697165.9574         43.2504
        33.2504
  -1161987.516 5                  24173109.375                          31.750

 -14140581.19947 -10295883.17647  22025360.7504   22025358.9264         44.5004
        45.7504
 -21695975.09447 -15542215.39846  20171233.1024   20171228.4924         47.2504
        40.2504
 21  2  1  0 11  0.0000000  0  8G23G18G15G24G12G13G10G20
 -21688605.12947 -16145959.75046  20289725.1644   20289721.2074         47.0004
        41.0004
  -3848435.91846  -2333490.87143  23492322.1724   23492319.8674         37.5004
        20.7504
 -15878835.69547 -12311609.20746  21176350.9454   21176346.7424         45.5004
        38.0004
 -20934058.33247 -16130944.43748  20153851.6724   20153849.9064         47.5004
        53.2504
  -9826507.08247  -7225025.21945  21681251.2034   21681247.7234         43.5004
        33.5004
  -1085202.500 5                  24187720.695                          32.000

 -14219830.00847 -10357635.47747  22010279.9924   22010279.0704         43.7504
        45.5004
 -21701772.95347 -15546733.23046  20170129.9144   20170125.1134         46.2504
        40.0004
 21  2  1  0 11 30.0000000  0  8G23G18G15G24G12G13G10G20
 -21704415.59047 -16158279.60246  20286716.0704   20286712.4654         47.2504
        40.7504
  -3763778.43046  -2267524.10943  23508432.7504   23508429.1174         37.5004
        20.5004
 -15827742.68747 -12271796.48846  21186073.6804   21186069.4184         46.0004
        37.2504
 -20893789.62147 -16099566.23448  20161514.6564   20161512.5434         47.5004
        53.0004
  -9909773.43747  -7289908.08645  21665405.9534   21665402.0984         44.5004
        33.5004
  -1008352.883 5                  24202345.828                          32.500

 -14298727.12947 -10419113.75047  21995266.6254   21995265.2974         44.7504
        46.0004
 -21706969.35547 -15550782.39546  20169140.5474   20169136.4264         47.0004
        40.5004
 21  2  1  0 12  0.0000000  0  8G23G18G15G24G12G13G10G20
 -21719657.78147 -16170156.65646  20283815.8204   20283812.4574         47.7504
        41.0004
  -3678993.68745  -2201458.10543  23524565.4144   23524562.6914         34.2504
        19.5004
 -15776397.97347 -12231787.64846  21195844.2894   21195840.0634         46.5004
        37.5004
 -20853161.14147 -16067907.68048  20169245.5394   20169243.6844         47.0004
        52.7504
  -9992648.05147  -7354485.69545  21649636.2034   21649631.5824         43.5004
        34.0004
   -931438.586 5                  24216982.484                          33.250

 -14377269.85547 -10480315.88747  21980320.5084   21980319.4304         43.7504
        45.5004
 -21711563.68747 -15554362.40246  20168266.4774   20168261.9414         47.7504
        40.5004
 21  2  1  0 12 30.0000000  0  8G23G18G15G24G12G13G10G20
 -21734330.64847 -16181590.08246  20281023.4144   20281019.8834         47.7504
        40.5004
  -3594084.79346  -2135295.34843  23540724.1484   23540720.0434         37.0004
        19.0004
 -15724801.75447 -12191582.81646  21205662.6644   21205658.7154         46.2504
        37.0004
 -20812173.48847 -16035969.25448  20177045.7734   20177043.6174         47.0004
        53.0004
 -10075128.29347  -7418756.00845  21633940.3204   21633936.3444         43.2504
        34.0004
   -854459.656 5                  24231631.156                          34.000

 -14455455.60547 -10541239.83647  21965442.1414   21965441.2344         44.5004
        45.5004
 -21715555.61747 -15557473.01646  20167506.9614   20167502.0824         46.2504
        39.7504
 21  2  1  0 13  0.0000000  0  8G23G18G15G24G12G13G10G20
 -21748433.16047 -16192579.06246  20278339.9224   20278336.5234         47.0004
        41.2504
  -3509054.92245  -2069038.34443  23556903.5004   23556900.5664         32.5004
        19.2504
 -15672953.85947 -12151181.85946  21215529.0164   21215524.5984         46.7504
        37.2504
 -20770829.55147 -16003753.21148  20184913.3134   20184911.1054         47.5004
        53.0004
 -10157210.73047  -7482716.34045  21618320.4224   21618316.7704         43.0004
        33.5004
   -777415.902 5                  24246291.516                          33.500

 -14533281.61347 -10601883.50447  21950632.8594   21950630.7974         44.5004
        45.7504
 -21718944.37547 -15560113.62946  20166862.5234   20166857.1604         47.0004
        40.2504
 21  2  1  0 13 30.0000000  0  8G23G18G15G24G12G13G10G20
 -21761964.27747 -16203122.80946  20275764.9614   20275761.8524         47.2504
        41.0004
  -3423907.22345  -2002689.50842  23573106.2814   23573104.5594         30.2504
        16.2504
 -15620854.39547 -12110584.88746  21225443.1174   21225439.1294         46.7504
        37.2504
 -20729130.89147 -15971260.75048  20192848.0634   20192845.9884         47.2504
        53.0004
 -10238892.32047  -7546364.33645  21602777.1094   21602773.0514         44.0004
        34.2504
   -700307.395 5                  24260964.859                          34.000

 -14610745.32447 -10662244.83247  21935891.6724   21935890.4454         44.5004
        45.5004
 -21721730.19547 -15562284.40246  20166332.4224   20166327.2934         45.2504
        39.7504
 21  2  1  0 14  0.0000000  0  8G23G18G15G24G12G13G10G20
 -21774922.97347 -16213220.50846  20273299.3054   20273295.7544         47.7504
        40.7504
  -3338644.94945  -1936251.37943  23589332.6884   23589329.0004         34.5004
        18.5004
 -15568503.61347 -12069792.09046  21235405.4844   21235401.2234         47.2504
        36.5004
 -20687079.46947 -15938493.41048  20200850.1024   20200848.0784         47.5004
        52.7504
 -10320170.01647  -7609697.60545  21587310.2974   21587306.4654         44.5004
        33.7504
   -623134.566 5                  24275651.000                          33.250

 -14687843.98047 -10722321.71147  21921220.3364   21921218.8284         44.7504
        46.2504
 -21723912.07847 -15563984.57446  20165916.6884   20165912.5164         45.5004
        40.7504
 21  2  1  0 14 30.0000000  0  8G23G18G15G24G12G13G10G20
 -21787308.31248 -16222871.43046  20270942.1484   20270938.7734         48.2504
        41.0004
  -3253271.14846  -1869726.37143  23605579.1414   23605575.3914         36.0004
        19.0004
 -15515901.21947 -12028803.21946  21245415.4614   21245411.1454         46.2504
        37.0004
 -20644676.98047 -15905452.51648  20208919.1174   20208916.6884         47.0004
        52.5004
 -10401040.74647  -7672713.72345  21571921.5864   21571917.1884         44.0004
        34.0004
   -545897.086 4                  24290348.242                          28.250

 -14764575.02347 -10782112.12547  21906618.5394   21906616.8014         44.5004
        46.2504
 -21725489.96147 -15565214.11346  20165616.4144   20165611.7934         46.5004
        40.0004
 21  2  1  0 15  0.0000000  0  8G23G18G15G24G12G13G10G20
 -21799119.30147 -16232074.81646  20268694.8754   20268691.4844         47.5004
        40.7504
  -3167788.98045  -1803116.90243  23621845.0474   23621842.7194         33.7504
        19.0004
 -15463047.98047 -11987618.90246  21255472.5234   21255468.5514         46.0004
        36.5004
 -20601925.45747 -15872139.63748  20217054.1334   20217052.2624         47.7504
        52.5004
 -10481501.47747  -7735410.41045  21556610.2344   21556605.5944         44.0004
        34.0004
                                  24305057.578                          25.250

 -14840935.74247 -10841613.98447  21892087.6484   21892086.7194         43.5004
        45.7504
 -21726463.13747 -15565972.44146  20165431.4224   20165427.0704         46.5004
        40.0004
 21  2  1  0 15 30.0000000  0  7G23G18G15G24G12G10G20
 -21810355.01247 -16240829.91846  20266556.5084   20266552.8984         47.5004
        41.2504
  -3082201.60945  -1736425.44942  23638131.1484   23638129.8014         31.0004
        16.7504
 -15409943.59047 -11946238.85246  21265578.2664   21265574.5084         46.0004
        37.2504
 -20558827.19147 -15838556.57848  20225255.6254   20225253.8634         47.5004
        52.5004
 -10561549.36347  -7797785.37545  21541377.6254   21541373.5084         44.0004
        34.2504
 -14916923.53547 -10900825.25047  21877627.5004   21877626.8244         45.0004
        46.0004
 -21726831.34847 -15566259.37946  20165361.3204   20165356.7344         46.5004
        40.5004
 21  2  1  0 16  0.0000000  0  7G23G18G15G24G12G10G20
 -21821014.53948 -16249136.05946  20264528.3204   20264524.7034         48.0004
        41.0004
  -2996511.99645  -1669654.39142  23654437.0314   23654436.2464         30.5004
        14.7504
 -15356588.44547 -11904663.44146  21275731.6094   21275727.4574         46.5004
        36.7504
 -20515383.52747 -15804704.38348  20233522.5864   20233520.8244         47.5004
        52.7504
 -10641181.11347  -7859836.06245  21526223.4774   21526220.1024         44.2504
        34.0004
 -14992535.69147 -10959743.82847  21863239.5004   21863237.9144         44.5004
        46.0004
 -21726594.44547 -15566074.79746  20165406.4694   20165401.9924         45.7504
        39.7504
 21  2  1  0 16 30.0000000  0  8G23G18G15G24G12G13G10G20
 -21831096.98047 -16256992.52746  20262609.3754   20262606.2424         47.2504
        41.2504
  -2910723.55945  -1602806.33642  23670763.8364   23670761.2194         34.0004
        14.7504
 -15302982.46547 -11862892.55546  21285932.3834   21285928.6214         45.7504
        36.7504
 -20471596.12947 -15770584.33648  20241855.3284   20241853.9694         47.7504
        52.7504
 -10720393.82047  -7921560.24245  21511150.4694   21511145.8444         44.5004
        34.2504
    127101.12114                  24349263.398                          29.250

 -15067769.66447 -11018367.69547  21848923.0944   21848920.5744         45.0004
        46.0004
 -21725751.75847 -15565418.17646  20165566.9694   20165562.0744         46.2504
        40.0004
 21  2  1  0 17  0.0000000  0  9G23G18G15G24G25G12G13G10G20
 -21840601.49647 -16264398.64846  20260801.0164   20260797.6454         47.0004
        41.2504
  -2824839.31244  -1535883.60542  23687104.7344   23687104.5394         29.2504
        15.5004
 -15249125.80547 -11820926.34846  21296180.8834   21296177.3594         45.5004
        36.7504
 -20427467.48048 -15736198.38348  20250252.7034   20250250.9344         48.0004
        52.5004
   -137588.26655    -74263.74653  23693798.6174   23693799.3634         31.0004
        22.7504
 -10799184.54347  -7982955.61745  21496156.6954   21496153.0554         44.0004
        35.2504
    204662.395 5                  24364024.023                          31.000

 -15142622.74247 -11076694.79747  21834678.8594   21834676.9654         45.2504
        46.5004
 -21724303.28147 -15564289.50846  20165842.4534   20165838.0664         46.0004
        40.0004
 21  2  1  0 17 30.0000000  0  9G23G18G15G24G25G12G13G10G20
 -21849527.18448 -16271353.74646  20259102.2504   20259098.8014         48.0004
        41.0004
  -2738862.379 5                  23703468.250                          30.250

 -15195018.44147 -11778764.78146  21306477.0084   21306473.9884         46.0004
        36.2504
 -20382999.30147 -15701547.84848  20258714.5084   20258712.7934         47.2504
        52.7504
                                  23671608.9844   23671612.1294         29.2504
        22.0004
 -10877550.14847  -8044019.69945  21481244.2584   21481240.5474         43.5004
        34.0004
    282288.230 5                  24378794.766                          33.000

 -15217092.41047 -11134723.08647  21820507.1024   21820505.4454         45.2504
        45.7504
 -21722248.62147 -15562688.47746  20166233.1174   20166229.3324         45.7504
        39.7504
 21  2  1  0 18  0.0000000  0  9G23G18G15G24G25G12G13G10G20
 -21857873.30147 -16277857.22746  20257513.9694   20257510.2934         47.0004
        41.0004
                                  23719845.133                          29.750

 -15140660.32847 -11736407.82046  21316821.4774   21316817.5594         44.5004
        36.0004
 -20338193.56648 -15666634.29748  20267241.0864   20267239.2384         48.0004
        52.7504
   -370714.05945   -255920.05943  23649436.2664   23649435.7194         33.0004
        21.7504
 -10955487.48447  -8104750.08245  21466412.8754   21466409.5084         43.0004
        34.2504
    359978.969 5                  24393577.758                          33.250

 -15291175.90647 -11192450.50047  21806409.9614   21806408.0044         46.0004
        46.5004
 -21719587.93447 -15560615.23446  20166739.8914   20166735.2734         46.2504
        40.5004
 21  2  1  0 18 30.0000000  0  9G23G18G15G24G25G12G13G10G20
 -21865639.00047 -16283908.42246  20256036.6254   20256033.0394         47.2504
        41.2504
  -2566642.887 4                  23736239.813                          29.000

 -15086051.96547 -11693855.87146  21327212.2974   21327208.7624         45.2504
        36.0004
 -20293052.21948 -15631459.21548  20275831.1024   20275829.3134         48.0004
        52.7504
                                  23627269.2664   23627270.1254         30.0004
        19.5004
 -11032993.66447  -8165144.49245  21451664.8204   21451660.1604         43.7504
        34.0004
    437734.391 4                  24408373.953                          29.500

 -15364870.71547 -11249875.00847  21792386.4774   21792384.7774         46.7504
        46.5004
 -21716320.79747 -15558069.42646  20167361.3984   20167356.9734         47.0004
        39.7504
 21  2  1  0 19  0.0000000  0  9G23G18G15G24G25G12G13G10G20
 -21872823.53147 -16289506.77346  20254669.3134   20254665.9144         46.2504
        41.0004
                                  23752647.109                          27.250

 -15031193.36747 -11651108.93046  21337652.2584   21337647.8524         45.0004
        36.2504
 -20247576.77048 -15596023.80148  20284484.5394   20284482.8954         48.0004
        52.5004
   -603601.32455   -437390.52053  23605119.7974   23605117.9574         31.0004
        18.5004
 -11110065.93747  -8225200.80545  21436997.7894   21436993.6844         43.7504
        34.0004
    515554.711 5                  24423184.508                          32.000

 -15438174.13747 -11306994.56247  21778436.8674   21778435.3914         45.0004
        46.7504
 -21712446.85947 -15555050.79746  20168098.6024   20168094.1764         47.0004
        40.0004
 21  2  1  0 19 30.0000000  0  8G23G15G24G25G12G13G10G20
 -21879426.04347 -16294651.60946  20253413.0004   20253409.5044         47.5004
        41.2504
 -14976084.56647 -11608167.02045  21348139.1414   21348134.8754         45.5004
        35.5004
 -20201769.68447 -15560329.96948  20293201.4384   20293199.6564         46.5004
        52.0004
                                  23582977.0554   23582978.2664         27.5004
        19.7504
 -11186701.09047  -8284916.51645  21422414.5784   21422411.3554         44.5004
        34.5004
    593439.879 5                  24438004.383                          32.250

 -15511083.64147 -11363807.16047  21764563.0234   21764561.3834         47.2504
        47.5004
 -21707966.35247 -15551559.50846  20168951.1174   20168946.7424         45.7504
        39.7504
 21  2  1  0 20  0.0000000  0  9G23G18G15G24G25G12G13G10G20
 -21885445.94547 -16299342.45346  20252267.3984   20252264.1024         47.0004
        41.0004
     73217.47315                  23785517.844                          30.500

 -14920726.01647 -11565030.50446  21358673.1724   21358669.3594         45.0004
        36.0004
 -20155632.48047 -15524378.90648  20301981.0634   20301979.0554         46.5004
        52.0004
   -836226.62554   -618657.00853  23560852.3834   23560852.0664         27.5004
        20.0004
 -11262896.38347  -8344289.43745  21407915.6884   21407911.7504         45.2504
        35.0004
                                  24452836.227                          27.500

 -15583596.60247 -11420310.77047  21750764.1804   21750762.2504         46.7504
        47.2504
 -21702878.80947 -15547595.20746  20169919.3984   20169915.0124         45.5004
        40.2504
 21  2  1  0 20 30.0000000  0  8G23G15G24G25G12G13G10G20
 -21890882.46547 -16303578.71947  20251233.2194   20251229.5274         47.0004
        42.0004
 -14865117.62947 -11521699.30146  21369255.8284   21369251.5664         45.0004
        36.0004
 -20109167.19947 -15488172.19148  20310823.1954   20310821.1914         47.0004
        52.2504
   -952433.78155   -709207.98453  23538736.6804   23538737.4774         30.2504
        21.5004
 -11338648.59447  -8403317.12145  21393500.1804   21393495.5354         44.7504
        34.0004
    749404.86715                  24467684.383                          31.750

 -15655710.40647 -11476503.34847  21737041.5634   21737039.8054         46.0004
        47.0004
 -21697184.29747 -15543157.93046  20171003.0394   20170998.4384         47.0004
        41.0004
 21  2  1  0 21  0.0000000  0  8G23G15G24G25G12G13G10G20
 -21895734.81647 -16307359.78546  20250309.5784   20250306.0744         46.7504
        41.5004
 -14809259.45747 -11478173.46545  21379884.6644   21379880.6024         45.2504
        34.5004
 -20062375.35547 -15451711.02048  20319727.4844   20319725.6524         47.0004
        52.0004
  -1068566.77745   -799701.19543  23516637.9384   23516637.7974         31.7504
        21.5004
 -11413955.21547  -8461997.60245  21379170.0004   21379165.7344         45.0004
        34.5004
                                  24482542.820                          29.500

 -15727422.47747 -11532382.88747  21723394.6094   21723393.4844         46.0004
        47.2504
 -21690882.93447 -15538247.78946  20172202.1334   20172198.2544         46.5004
        40.2504
 21  2  1  0 21 30.0000000  0  8G23G15G24G25G12G13G10G20
 -21900002.57048 -16310685.32046  20249497.7114   20249493.9454         48.0004
        41.5004
 -14753151.92647 -11434453.32445  21390561.5864   21390557.3714         45.7504
        35.7504
 -20015259.58647 -15414997.42648  20328693.0164   20328691.0044         47.0004
        52.0004
  -1184622.64545   -890134.34443  23494552.7274   23494552.0514         31.0004
        21.5004
 -11488813.30947  -8520328.56645  21364925.0944   21364921.1294         44.7504
        35.0004
    905629.00015                  24497413.711                          30.250

 -15798730.23447 -11587947.37147  21709825.5314   21709823.4924         45.5004
        47.2504
 -21683974.55147 -15532864.65646  20173516.9844   20173512.6294         46.7504
        40.7504
 21  2  1  0 22  0.0000000  0  8G23G15G24G25G12G13G10G20
 -21903684.99247 -16313554.74246  20248796.5084   20248792.8874         47.2504
        41.2504
 -14696794.96547 -11390538.82045  21401286.5314   21401282.4384         45.5004
        35.5004
 -19967821.32847 -15378032.57448  20337720.1564   20337718.0514         47.0004
        52.0004
  -1300598.38745   -980505.00843  23472484.2034   23472483.2734         33.0004
        22.5004
 -11563219.75047  -8578307.60945  21350765.5634   21350761.2664         45.0004
        35.0004
                                  24512295.500                          27.250

 -15869631.11347 -11643194.82047  21696333.9844   21696331.7274         46.2504
        47.5004
 -21676458.99247 -15527008.39546  20174946.7274   20174942.7624         47.0004
        40.7504
 21  2  1  0 22 30.0000000  0  7G23G15G24G25G12G10G20
 -21906781.41447 -16315967.55946  20248207.3984   20248203.8284         46.5004
        41.0004
 -14640188.62147 -11346430.00845  21412058.0084   21412054.1994         45.5004
        35.0004
 -19920063.06247 -15340818.33648  20346808.8524   20346806.4844         47.0004
        52.0004
  -1416491.17645  -1070811.09443  23450431.9384   23450427.4924         34.7504
        22.5004
 -11637171.54347  -8635932.37145  21336692.7894   21336689.4774         44.0004
        35.2504
 -15940122.48847 -11698123.16047  21682919.4534   21682917.7114         45.0004
        47.2504
 -21668336.32847 -15520679.05946  20176492.6564   20176488.1804         44.5004
        40.5004
 21  2  1  0 23  0.0000000  0  8G23G18G15G24G25G12G10G20
 -21909291.33247 -16317923.33646  20247730.1024   20247726.1804         45.7504
        41.0004
                                  23884436.188                          33.000

 -14583333.13747 -11302127.04745  21422877.3984   21422872.8134         45.0004
        35.2504
 -19871985.61347 -15303355.39548  20355957.2814   20355955.2234         47.2504
        51.7504
  -1532298.08646  -1161050.19544  23428393.7114   23428390.3834         36.7504
        25.0004
 -11710666.09047  -8693200.83245  21322707.8444   21322703.4384         45.0004
        35.0004
 -16010201.88347 -11752730.47347  21669584.1884   21669581.9774         47.0004
        47.5004
 -21659606.66447 -15513876.74246  20178153.9384   20178149.5084         47.0004
        40.7504
 21  2  1  0 23 30.0000000  0  8G23G18G15G24G25G12G10G20
 -21911214.13347 -16319421.64146  20247363.7274   20247360.8484         46.7504
        41.5004
    147590.59814                  23900959.344                          27.500

 -14526228.76647 -11257630.13745  21433743.7034   21433739.8914         44.5004
        34.7504
 -19823592.18447 -15265646.23848  20365166.1334   20365164.3054         46.5004
        51.5004
  -1648016.07046  -1251219.95744  23406372.2504   23406371.7194         36.7504
        27.0004
 -11783700.24247  -8750110.58245  21308809.4774   21308805.3674         45.5004
        35.0004
 -16079866.65647 -11807014.69947  21656327.2504   21656325.5084         45.5004
        47.7504
 -21650270.07847 -15506601.50046  20179930.2274   20179926.0664         46.7504
        40.0004
 21  2  1  0 24  0.0000000  0  7G23G15G24G25G12G10G20
 -21912549.30147 -16320462.03946  20247110.0004   20247106.2934         47.5004
        41.0004
 -14468875.22347 -11212939.07445  21444657.5554   21444653.5984         44.5004
        34.5004
 -19774883.72747 -15227691.60248  20374435.3834   20374433.4144         47.0004
        51.7504
  -1763642.21145  -1341318.25444  23384368.4304   23384367.7194         34.2504
        27.0004
 -11856271.80947  -8806659.84445  21295000.0474   21294995.9384         44.0004
        35.2504
 -16149114.27347 -11860973.89547  21643150.0004   21643148.4964         45.5004
        47.7504
 -21640326.57847 -15498853.33246  20181823.0864   20181818.4924         46.5004
        39.7504
 21  2  1  0 24 30.0000000  0  7G23G15G24G25G12G10G20
 -21913296.31647 -16321044.13346  20246967.7504   20246964.0124         47.2504
        41.0004
 -14411273.38347 -11168054.54345  21455618.8364   21455615.1374         44.2504
        35.0004
 -19725862.50447 -15189493.25448  20383763.8054   20383761.8134         47.5004
        51.5004
  -1879173.58645  -1431342.64844  23362384.0004   23362383.9884         34.5004
        25.7504
 -11928377.50847  -8862846.09446  21281278.8524   21281274.9574         44.2504
        36.0004
 -16217942.23847 -11914606.07847  21630052.6174   21630050.8484         45.2504
        47.7504
 -21629776.37947 -15490632.41046  20183830.2734   20183826.1524         47.5004
        40.2504
 21  2  1  0 25  0.0000000  0  7G23G15G24G25G12G10G20
 -21913454.65647 -16321167.53546  20246937.8524   20246933.8594         46.7504
        40.5004
 -14353423.21947 -11122976.50045  21466627.4774   21466623.2074         45.2504
        34.2504
 -19676530.51647 -15151052.73448  20393150.8984   20393148.7934         46.7504
        51.7504
  -1994607.27345  -1521290.96544  23340418.8674   23340417.1914         34.0004
        28.0004
 -12000014.63747  -8918667.21945  21267646.2734   21267642.6644         45.7504
        35.5004
 -16286347.95747 -11967909.23447  21617035.0394   21617033.2704         46.0004
        47.5004
 -21618619.45347 -15481938.72746  20185953.6724   20185949.1414         46.5004
        40.2504
 21  2  1  0 25 30.0000000  0  8G23G18G15G24G25G12G10G20
 -21913023.94947 -16320831.92246  20247019.4694   20247015.9384         46.2504
        41.2504
                                  23967160.352                          33.500

 -14295324.55947 -11077704.83245  21477683.8834   21477679.1604         44.0004
        34.2504
 -19626889.51647 -15112371.44548  20402597.5314   20402595.3634         47.7504
        51.5004
  -2109940.30945  -1611160.81644  23318470.5164   23318470.9574         35.0004
        29.2504
 -12071180.16447  -8974120.87945  21254104.4304   21254100.4774         46.0004
        35.5004
 -16354328.97747 -12020881.46147  21604098.3834   21604096.3524         46.5004
        47.2504
 -21606856.23047 -15472772.59046  20188191.7584   20188187.6844         46.2504
        40.2504
 21  2  1  0 26  0.0000000  0  8G23G18G15G24G25G12G10G20
 -21912003.65647 -16320036.90246  20247213.7344   20247210.3554         46.2504
        41.0004
    137590.461 4                  23983728.547                          27.500

 -14236977.56647 -11032239.65245  21488786.8834   21488783.0084         45.0004
        34.5004
 -19576941.45748 -15073450.87948  20412101.9144   20412100.7934         48.0004
        51.5004
  -2225169.64845  -1700949.85545  23296543.2814   23296544.2194         35.2504
        30.5004
 -12141871.66047  -9029205.15245  21240651.8984   21240647.6724         44.0004
        35.5004
 -16421882.67247 -12073520.71147  21591243.5164   21591241.5434         45.0004
        47.2504
 -21594487.04347 -15463134.27746  20190545.6884   20190541.1804         46.2504
        40.0004
 21  2  1  0 26 30.0000000  0  7G23G15G24G25G12G10G20
 -21910393.40647 -16318782.17246  20247520.3524   20247516.6414         47.2504
        40.7504
 -14178382.45347 -10986581.14145  21499936.6724   21499932.8984         45.2504
        34.7504
 -19526688.16447 -15034292.46948  20421665.4064   20421663.6414         47.0004
        51.5004
  -2340292.42245  -1790655.89145  23274636.5164   23274637.0124         34.0004
        31.7504
 -12212086.14147  -9083917.73845  21227290.5704   21227286.1954         46.0004
        34.7504
 -16489006.60547 -12125825.07847  21578470.3594   21578468.1604         46.5004
        47.5004
 -21581511.62147 -15453023.57846  20193014.7664   20193011.0904         46.7504
        40.2504
 21  2  1  0 27  0.0000000  0  7G23G15G24G25G12G10G20
 -21908192.84447 -16317067.46546  20247939.1414   20247935.3284         47.5004
        41.5004
 -14119539.80547 -10940729.75045  21511134.4774   21511130.3524         44.0004
        34.0004
 -19476131.57847 -14994897.73848  20431286.1094   20431284.2154         47.2504
        51.5004
  -2455305.59045  -1880276.49245  23252750.0314   23252750.2504         34.5004
        32.0004
 -12281820.76647  -9138256.37146  21214020.6644   21214016.4024         45.7504
        36.0004
 -16555698.27047 -12177792.60547  21565779.5084   21565776.7344         45.7504
        47.5004
 -21567930.41847 -15442440.82846  20195599.0784   20195595.4884         46.5004
        40.0004
 21  2  1  0 27 30.0000000  0  7G23G15G24G25G12G10G20
 -21905401.53147 -16314892.41846  20248470.3914   20248466.4574         46.5004
        41.0004
 -14060449.58647 -10894685.43045  21522378.4304   21522374.7854         45.0004
        34.2504
 -19425273.45347 -14955268.02748  20440963.6484   20440961.9574         46.7504
        51.0004
  -2570206.19945  -1969809.43445  23230886.1884   23230884.9534         35.5004
        32.0004
 -12351073.17647  -9192219.27346  21200842.1254   21200838.2704         45.2504
        36.5004
 -16621955.07847 -12229421.29747  21553171.1254   21553169.2464         45.5004
        47.5004
 -21553743.86347 -15431386.39146  20198299.0164   20198294.6484         47.2504
        39.5004
 21  2  1  0 28  0.0000000  0  7G23G15G24G25G12G10G20
 -21902019.16447 -16312256.82846  20249113.8284   20249110.6724         46.7504
        41.5004
 -14001111.93747 -10848448.32445  21533670.1724   21533666.1524         44.7504
        34.7504
 -19374115.95747 -14915405.06248  20450698.6024   20450696.8404         47.5004
        51.2504
  -2684991.39846  -2059252.43445  23209043.5394   23209041.9494         38.5004
        32.2504
 -12419840.26247  -9245804.00445  21187755.8834   21187752.1454         44.2504
        35.0004
 -16687774.65247 -12280709.27048  21540646.1564   21540643.9694         45.0004
        48.0004
 -21538951.97747 -15419860.26646  20201113.8284   20201109.6914         47.7504
        40.2504
 21  2  1  0 28 30.0000000  0  7G23G15G24G25G12G10G20
 -21898045.42247 -16309160.41046  20249870.1804   20249866.3484         47.2504
        41.0004
 -13941527.05547 -10802018.54745  21545008.9694   21545004.8284         45.0004
        34.0004
 -19322661.07047 -14875310.33648  20460490.4774   20460488.3834         47.5004
        51.0004
  -2799658.14546  -2148603.13345  23187222.0784   23187221.7774         36.5004
        30.2504
 -12488119.75047  -9299008.81245  21174762.8914   21174758.5784         46.2504
        35.2504
 -16753154.50047 -12331654.60548  21528205.1484   21528202.4884         47.0004
        48.0004
 -21523555.40647 -15407862.94946  20204044.2974   20204039.3484         47.0004
        39.5004
 21  2  1  0 29  0.0000000  0  7G23G15G24G25G12G10G20
 -21893480.00848 -16305602.96146  20250738.7974   20250735.1414         48.0004
        41.2504
 -13881694.80147 -10755396.03145  21556394.6174   21556390.3754         45.5004
        34.0004
 -19270910.20747 -14834984.99648  20470338.2114   20470336.8554         47.7504
        51.5004
  -2914203.44946  -2237859.16845  23165424.6644   23165424.0394         36.5004
        31.0004
 -12555908.50447  -9351831.21545  21161863.4614   21161859.6054         46.5004
        35.7504
 -16818092.10547 -12382255.34848  21515847.9454   21515845.5004         46.5004
        48.0004
 -21507554.40248 -15395394.64146  20207088.7034   20207084.4184         48.0004
        40.5004
 21  2  1  0 29 30.0000000  0  7G23G15G24G25G12G10G20
 -21888322.65247 -16301584.25046  20251720.3364   20251716.7664         46.7504
        41.2504
 -13821615.76647 -10708581.23045  21567827.1484   21567823.6054         45.0004
        34.2504
 -19218865.68047 -14794430.81648  20480242.1484   20480240.0554         47.5004
        51.5004
  -3028624.28145  -2327018.23445  23143650.4924   23143650.8954         34.2504
        31.0004
 -12623204.03947  -9404269.28146  21149057.3594   21149053.4264         44.7504
        36.0004
 -16882585.01647 -12432509.55948  21503575.2344   21503573.1174         46.0004
        48.2504
 -21490949.72747 -15382455.94146  20210248.3754   20210244.5044         47.2504
        40.5004
 21  2  1  0 30  0.0000000  0  7G23G15G24G25G12G10G20
 -21882573.12147 -16297104.10546  20252814.7034   20252810.7734         47.0004
        41.2504
 -13761290.14147 -10661574.26245  21579307.0944   21579302.8284         45.5004
        34.7504
 -19166529.02047 -14753649.00848  20490201.5164   20490199.5744         47.0004
        51.2504
  -3142917.77745  -2416078.05545  23121901.0634   23121901.1374         34.5004
        30.5004
 -12690003.79747  -9456321.03146  21136345.6804   21136341.6644         46.2504
        36.2504
 -16946630.78947 -12482415.35248  21491387.2274   21491385.6454         47.5004
        48.5004
 -21473741.27047 -15369046.77346  20213523.0634   20213518.7464         47.5004
        39.7504
 21  2  1  0 30 30.0000000  0  7G23G15G24G25G12G10G20
 -21876231.21547 -16292162.35946  20254020.6024   20254017.5944         47.0004
        41.5004
 -13700717.92247 -10614375.15245  21590833.6414   21590829.4104         44.5004
        34.0004
 -19113902.19947 -14712641.09848  20500215.9144   20500214.0084         47.2504
        51.0004
  -3257080.89145  -2505036.26644  23100176.4774   23100176.7424         32.5004
        29.7504
 -12756304.87547  -9507984.20346  21123729.2504   21123724.5124         45.0004
        36.2504
 -17010227.02747 -12531970.86348  21479285.4224   21479283.6134         46.5004
        48.5004
 -21455929.52047 -15355167.49246  20216912.7584   20216908.0904         47.7504
        39.5004
 21  2  1  0 31  0.0000000  0  7G23G15G24G25G12G10G20
 -21869296.72347 -16286758.87546  20255340.7504   20255337.4344         45.5004
        41.5004
 -13639899.55147 -10566984.21945  21602406.7974   21602402.7344         44.0004
        34.0004
 -19060987.35947 -14671408.75448  20510285.0784   20510283.4264         47.0004
        51.2504
  -3371110.71945  -2593890.60944  23078477.4534   23078477.4184         33.5004
        28.5004
 -12822104.66047  -9559256.77746  21111207.9064   21111203.4924         45.5004
        36.0004
 -17073371.21547 -12581174.14848  21467269.5164   21467267.3794         46.2504
        48.5004
 -21437515.18048 -15340818.67246  20220416.5784   20220412.1844         48.0004
        40.0004
 21  2  1  0 31 30.0000000  0  7G23G15G24G25G12G10G20
 -21861769.48447 -16280893.50447  20256773.0234   20256769.8984         46.0004
        42.2504
 -13578835.11347 -10519401.57445  21614027.0634   21614023.1724         43.7504
        34.0004
 -19007786.32047 -14629953.39848  20520408.9304   20520407.2034         47.5004
        51.5004
  -3485004.15645  -2682638.70345  23056804.2734   23056803.9614         34.5004
        30.0004
 -12887400.94947  -9610136.97345  21098781.9844   21098778.1994         44.5004
        35.7504
 -17136061.00447 -12630023.32448  21455340.0004   21455338.3634         46.0004
        48.7504
 -21418498.39547 -15326000.42646  20224035.3284   20224031.1954         47.2504
        40.0004
 21  2  1  0 32  0.0000000  0  7G23G15G24G25G12G10G20
 -21853649.34847 -16274566.12946  20258318.5944   20258314.5044         46.0004
        41.0004
 -13517524.88747 -10471627.39845  21625694.0944   21625689.9184         44.0004
        34.0004
 -18954301.25047 -14588276.73048  20530586.9224   20530585.5354         46.2504
        51.2504
  -3598758.17645  -2771278.18045  23035157.7034   23035157.4454         32.5004
        31.7504
 -12952190.96947  -9660622.69946  21086453.7734   21086449.2584         46.2504
        36.5004
 -17198293.94547 -12678516.53148  21443497.7114   21443496.0944         47.0004
        48.7504
 -21398880.06247 -15310713.41446  20227768.6644   20227764.1484         46.7504
        39.5004
 21  2  1  0 32 30.0000000  0  7G23G15G24G25G12G10G20
 -21844936.23047 -16267776.69946  20259976.3594   20259973.0004         46.7504
        40.7504
 -13455969.05147 -10423661.82445  21637407.9384   21637403.8834         44.5004
        34.0004
 -18900533.59847 -14546379.86348  20540818.3984   20540816.7544         46.5004
        51.2504
  -3712369.98445  -2859806.85245  23013538.4224   23013538.4614         33.2504
        32.5004
 -13016472.03547  -9710711.82446  21074220.7194   21074217.1804         45.7504
        36.2504
 -17260067.64547 -12726651.88748  21431742.6334   21431740.9344         47.0004
        48.5004
 -21378660.67247 -15294958.07046  20231616.5234   20231611.8364         46.2504
        39.2504
 21  2  1  0 33  0.0000000  0  7G23G15G24G25G12G10G20
 -21835630.02047 -16260525.10946  20261747.1724   20261743.5704         46.5004
        41.0004
 -13394167.73447 -10375504.97745  21649168.0234   21649164.5824         44.5004
        34.2504
 -18846484.87547 -14504263.98448  20551103.6094   20551102.0314         46.2504
        51.0004
  -3825836.39845  -2948222.21945  22991946.5944   22991946.8554         34.5004
        34.7504
 -13080241.57847  -9760402.37546  21062085.8674   21062081.9344         45.0004
        36.7504
 -17321379.73447 -12774427.54748  21420075.2734   21420073.1024         46.2504
        48.7504
 -21357840.52347 -15278734.58246  20235578.3524   20235573.8554         47.7504
        40.0004
 21  2  1  0 33 30.0000000  0  7G23G15G24G25G12G10G20
 -21825730.64547 -16252811.32046  20263631.1484   20263627.5084         46.0004
        41.0004
 -13332121.20347 -10327157.05945  21660975.4224   21660971.5824         44.5004
        33.5004
 -18792157.96147 -14461931.32448  20561441.6254   20561439.5864         47.0004
        50.7504
  -3939154.53945  -3036522.05545  22970383.1024   22970383.2504         34.5004
        34.5004
 -13143497.07047  -9809692.35246  21050049.1954   21050044.9104         44.5004
        36.7504
 -17382227.76247 -12821841.59048  21408496.2194   21408494.3554         45.5004
        49.0004
 -21336420.37547 -15262043.57046  20239654.4614   20239650.2304         46.2504
        40.0004
 21  2  1  0 34  0.0000000  0  7G23G15G24G25G12G10G20
 -21815238.08647 -16244635.30946  20265627.8134   20265624.4344         46.5004
        41.2504
 -13269829.68747 -10278618.23045  21672828.9924   21672824.6484         44.2504
        33.7504
 -18737553.89147 -14419382.70348  20571832.7814   20571831.1604         46.2504
        51.0004
  -4052321.38346  -3124703.96545  22948847.3364   22948847.6994         36.0004
        34.2504
 -13206236.36747  -9858580.10546  21038109.9774   21038105.5354         46.0004
        36.2504
 -17442609.42247 -12868892.25448  21397005.6884   21397004.4804         46.0004
        49.0004
 -21314400.95347 -15244885.60246  20243844.6094   20243840.4344         46.2504
        39.5004
 21  2  1  0 34 30.0000000  0  7G23G15G24G25G12G10G20
 -21804152.31247 -16235997.06246  20267737.2194   20267734.1454         45.0004
        41.5004
 -13207293.50447 -10229888.77345  21684729.0864   21684725.1054         43.5004
        34.0004
 -18682674.98047 -14376619.92248  20582275.5004   20582274.1884         46.0004
        51.0004
  -4165333.88746  -3212765.65245  22927341.7344   22927342.1644         36.5004
        34.2504
 -13268456.61347  -9907063.40246  21026269.6954   21026265.1524         45.0004
        36.0004
 -17502522.33247 -12915577.63748  21385604.7424   21385603.5084         46.0004
        49.0004
 -21291782.79347 -15227261.07446  20248148.7894   20248144.4494         45.7504
        40.0004
 21  2  1  0 35  0.0000000  0  7G23G15G24G25G12G10G20
 -21792473.32847 -16226896.56646  20269959.8984   20269956.2584         46.7504
        41.5004
 -13144512.79347 -10180968.75845  21696675.8754   21696672.1724         43.5004
        33.7504
 -18627523.10247 -14333644.43448  20592770.9144   20592768.7814         46.2504
        50.5004
  -4278189.10245  -3300704.76645  22905867.1954   22905866.1374         35.0004
        34.5004
 -13330155.16447  -9955140.18746  21014528.9774   21014524.4104         45.2504
        36.5004
 -17561964.19147 -12961895.95348  21374293.7274   21374291.7974         46.0004
        49.5004
 -21268566.75047 -15209170.66046  20252566.6174   20252562.6564         46.5004
        40.5004
 21  2  1  0 35 30.0000000  0  7G23G15G24G25G12G10G20
 -21780201.19147 -16217333.87146  20272295.2424   20272291.6374         46.2504
        41.5004
 -13081487.93047 -10131858.50845  21708669.0864   21708665.6024         43.7504
        33.5004
 -18572100.07847 -14290457.66448  20603317.3594   20603315.6134         46.5004
        50.5004
  -4390884.00046  -3388518.97345  22884421.3524   22884420.8754         36.7504
        34.7504
 -13391329.96547 -10002808.85246  21002887.9064   21002883.3754         45.0004
        36.7504
 -17620932.61747 -13007845.39848  21363071.9614   21363070.3554         47.0004
        49.5004
 -21244753.89147 -15190615.20346  20257098.2584   20257093.5474         47.0004
        39.0004
 21  2  1  0 36  0.0000000  0  7G23G15G24G25G12G10G20
 -21767335.94947 -16207309.02046  20274743.2974   20274740.3364         46.0004
        41.2504
 -13018218.56247 -10082557.70345  21720708.8674   21720704.5164         43.7504
        33.0004
 -18516407.50847 -14247060.85948  20613915.0164   20613913.6804         47.0004
        50.2504
  -4503415.62546  -3476205.93045  22863006.6094   22863006.3914         38.0004
        35.0004
 -13451978.48047 -10050067.41846  20991346.8594   20991342.1134         45.2504
        36.5004
 -17679425.30147 -13053424.11348  21351941.1484   21351939.7734         46.0004
        49.5004
 -21220343.69147 -15171594.28146  20261742.9454   20261738.2814         47.2504
        39.7504
 21  2  1  0 36 30.0000000  0  7G23G15G24G25G12G10G20
 -21753877.69547 -16196822.07846  20277304.3834   20277300.6994         46.2504
        41.0004
 -12954705.60947 -10033067.11745  21732794.8524   21732791.5864         43.7504
        34.0004
 -18460447.41847 -14203455.59848  20624564.1334   20624562.2194         47.0004
        50.2504
  -4615780.90246  -3563763.27345  22841624.4534   22841624.6914         37.2504
        35.5004
 -13512098.35247 -10096914.08646  20979906.2974   20979902.0864         45.5004
        36.2504
 -17737439.92647 -13098630.31248  21340901.0234   21340900.1254         47.2504
        49.5004
 -21195337.88747 -15152109.25846  20266502.0394   20266497.5704         47.5004
        40.0004
 21  2  1  0 37  0.0000000  0  7G23G15G24G25G12G10G20
